{"type":"FeatureCollection","features":[{"type":"Feature","properties":{"scalerank":2,"name":"Mt. Kilimanjaro","elevation":5895,"comment":"Highest point in Africa","name_alt":null,"lat_y":-3.075738214,"long_x":37.353282097,"nation1":null,"nation2":null,"note":null,"region":"Africa","subregion":null,"featureclass":"mountain"},"geometry":{"type":"Point","coordinates":[37.35325164703161,-3.075714746279047]}},{"type":"Feature","properties":{"scalerank":2,"name":"Vinson Massif","elevation":4892,"comment":null,"name_alt":null,"lat_y":-78.529351495,"long_x":-85.633717414,"nation1":null,"nation2":null,"note":null,"region":"Antarctica","subregion":null,"featureclass":"mountain"},"geometry":{"type":"Point","coordinates":[-85.633729484895,-78.52936249227913]}},{"type":"Feature","properties":{"scalerank":2,"name":"Mt. Everest","elevation":8848,"comment":"Worlds highest point","name_alt":null,"lat_y":27.980475165,"long_x":86.880625847,"nation1":null,"nation2":null,"note":null,"region":"Asia","subregion":null,"featureclass":"mountain"},"geometry":{"type":"Point","coordinates":[86.8805960349296,27.980480509130615]}},{"type":"Feature","properties":{"scalerank":2,"name":"Turpan Depression","elevation":-154,"comment":null,"name_alt":null,"lat_y":42.768683173,"long_x":89.340098504,"nation1":null,"nation2":null,"note":null,"region":"Asia","subregion":null,"featureclass":"depression"},"geometry":{"type":"Point","coordinates":[89.34011996654479,42.76868522184947]}},{"type":"Feature","properties":{"scalerank":2,"name":null,"elevation":-416,"comment":"Worlds lowest point","name_alt":null,"lat_y":31.515387274,"long_x":35.474742058,"nation1":null,"nation2":null,"note":null,"region":"Asia","subregion":null,"featureclass":"depression"},"geometry":{"type":"Point","coordinates":[35.47472016487373,31.515389797694517]}},{"type":"Feature","properties":{"scalerank":2,"name":"Khyber Pass","elevation":1070,"comment":null,"name_alt":null,"lat_y":34.098395087,"long_x":71.097788933,"nation1":null,"nation2":null,"note":null,"region":"Asia","subregion":null,"featureclass":"pass"},"geometry":{"type":"Point","coordinates":[71.09782951165829,34.09839078145032]}},{"type":"Feature","properties":{"scalerank":2,"name":"K2","elevation":8611,"comment":null,"name_alt":null,"lat_y":35.882391669,"long_x":76.513194207,"nation1":null,"nation2":null,"note":null,"region":"Asia","subregion":null,"featureclass":"mountain"},"geometry":{"type":"Point","coordinates":[76.51320907809574,35.88240597247014]}},{"type":"Feature","properties":{"scalerank":2,"name":"Muztag Feng","elevation":6973,"comment":null,"name_alt":"Ulugh Muztag","lat_y":36.416510321,"long_x":87.413218621,"nation1":null,"nation2":null,"note":null,"region":"Asia","subregion":null,"featureclass":"mountain"},"geometry":{"type":"Point","coordinates":[87.41319937465036,36.41650380055506]}},{"type":"Feature","properties":{"scalerank":2,"name":"Kailash","elevation":6638,"comment":null,"name_alt":null,"lat_y":31.06659577,"long_x":81.312510613,"nation1":null,"nation2":null,"note":null,"region":"Asia","subregion":null,"featureclass":"mountain"},"geometry":{"type":"Point","coordinates":[81.31253630588449,31.066598981098316]}},{"type":"Feature","properties":{"scalerank":2,"name":null,"elevation":-28,"comment":"Lowest point in Europe","name_alt":null,"lat_y":44.257574774,"long_x":49.009532097,"nation1":null,"nation2":null,"note":null,"region":"Europe","subregion":null,"featureclass":"depression"},"geometry":{"type":"Point","coordinates":[49.00953383900048,44.257559156738566]}},{"type":"Feature","properties":{"scalerank":2,"name":"Gora Elbrus","elevation":5642,"comment":"Highest point in Europe","name_alt":"Mount Elbrus","lat_y":43.355169989,"long_x":42.439219597,"nation1":null,"nation2":null,"note":null,"region":"Europe","subregion":null,"featureclass":"mountain"},"geometry":{"type":"Point","coordinates":[42.43919750811773,43.35517092583443]}},{"type":"Feature","properties":{"scalerank":2,"name":"Death Valley","elevation":-86,"comment":"Lowest point in N. America","name_alt":null,"lat_y":36.24225495,"long_x":-116.828236457,"nation1":null,"nation2":null,"note":null,"region":"North America","subregion":null,"featureclass":"depression"},"geometry":{"type":"Point","coordinates":[-116.82822550135457,36.24225453561077]}},{"type":"Feature","properties":{"scalerank":2,"name":"Mt. McKinley","elevation":6194,"comment":"Highest point in N. America","name_alt":null,"lat_y":63.069403387,"long_x":-151.007313606,"nation1":null,"nation2":null,"note":null,"region":"North America","subregion":null,"featureclass":"mountain"},"geometry":{"type":"Point","coordinates":[-151.0072955641745,63.06941124467545]}},{"type":"Feature","properties":{"scalerank":2,"name":"Mt. Whitney","elevation":4421,"comment":null,"name_alt":null,"lat_y":36.582709052,"long_x":-118.292225715,"nation1":null,"nation2":null,"note":null,"region":"North America","subregion":null,"featureclass":"mountain"},"geometry":{"type":"Point","coordinates":[-118.29221822455945,36.582715141594875]}},{"type":"Feature","properties":{"scalerank":2,"name":null,"elevation":-16,"comment":"Lowest point in Australia","name_alt":null,"lat_y":-28.448663019,"long_x":137.284434441,"nation1":null,"nation2":null,"note":null,"region":"Oceania","subregion":"Australia","featureclass":"depression"},"geometry":{"type":"Point","coordinates":[137.2844376526123,-28.448653493871916]}},{"type":"Feature","properties":{"scalerank":2,"name":"Mt. Kosciuszko","elevation":2228,"comment":"Highest point in Australia","name_alt":null,"lat_y":-36.455865167,"long_x":148.263194207,"nation1":null,"nation2":null,"note":null,"region":"Oceania","subregion":"Australia","featureclass":"mountain"},"geometry":{"type":"Point","coordinates":[148.26319152511533,-36.45587979951783]}},{"type":"Feature","properties":{"scalerank":2,"name":"Cerro Aconcagua","elevation":6959,"comment":"Highest point in S. America","name_alt":null,"lat_y":-32.655694269,"long_x":-70.015797493,"nation1":null,"nation2":null,"note":null,"region":"South America","subregion":null,"featureclass":"mountain"},"geometry":{"type":"Point","coordinates":[-70.01580098903159,-32.65567863052878]}},{"type":"Feature","properties":{"scalerank":2,"name":null,"elevation":-40,"comment":"Lowest point in S. America","name_alt":null,"lat_y":-42.623955988,"long_x":-63.968800422,"nation1":null,"nation2":null,"note":null,"region":"South America","subregion":null,"featureclass":"depression"},"geometry":{"type":"Point","coordinates":[-63.96877793506543,-42.62399680255744]}},{"type":"Feature","properties":{"scalerank":2,"name":"Cero Raya","elevation":2070,"comment":null,"name_alt":null,"lat_y":5.451666571,"long_x":-66.375599739,"nation1":null,"nation2":null,"note":null,"region":"South America","subregion":null,"featureclass":"mountain"},"geometry":{"type":"Point","coordinates":[-66.3755908581613,5.451674293245532]}},{"type":"Feature","properties":{"scalerank":3,"name":null,"elevation":-156,"comment":"Lowest point in Africa","name_alt":null,"lat_y":11.67182038,"long_x":42.413340691,"nation1":null,"nation2":null,"note":null,"region":"Africa","subregion":null,"featureclass":"depression"},"geometry":{"type":"Point","coordinates":[42.413346898575696,11.67181564798851]}},{"type":"Feature","properties":{"scalerank":3,"name":"Mt. Takahe","elevation":3460,"comment":null,"name_alt":null,"lat_y":-76.272881769,"long_x":-112.099842903,"nation1":null,"nation2":null,"note":null,"region":"Antarctica","subregion":null,"featureclass":"mountain"},"geometry":{"type":"Point","coordinates":[-112.09986627507416,-76.27284662872377]}},{"type":"Feature","properties":{"scalerank":3,"name":"Mt. Sidley","elevation":4285,"comment":null,"name_alt":null,"lat_y":-77.031548761,"long_x":-126.066517707,"nation1":null,"nation2":null,"note":null,"region":"Antarctica","subregion":null,"featureclass":"mountain"},"geometry":{"type":"Point","coordinates":[-126.06650630328515,-77.03156201878257]}},{"type":"Feature","properties":{"scalerank":3,"name":"Mt. Fridtjof Nansen","elevation":4069,"comment":null,"name_alt":null,"lat_y":-85.3475888,"long_x":-167.554676887,"nation1":null,"nation2":null,"note":null,"region":"Antarctica","subregion":null,"featureclass":"mountain"},"geometry":{"type":"Point","coordinates":[-167.55467464780637,-85.34762232530097]}},{"type":"Feature","properties":{"scalerank":3,"name":"Gongga Shan","elevation":7556,"comment":null,"name_alt":null,"lat_y":29.595770575,"long_x":101.879161004,"nation1":null,"nation2":null,"note":null,"region":"Asia","subregion":null,"featureclass":"mountain"},"geometry":{"type":"Point","coordinates":[101.87911969121936,29.59578008131124]}},{"type":"Feature","properties":{"scalerank":3,"name":"Dhaulagiri","elevation":8172,"comment":null,"name_alt":null,"lat_y":28.696478583,"long_x":83.4951278,"nation1":null,"nation2":null,"note":null,"region":"Asia","subregion":null,"featureclass":"mountain"},"geometry":{"type":"Point","coordinates":[83.49513558278059,28.69646161029023]}},{"type":"Feature","properties":{"scalerank":3,"name":"Belukha","elevation":4506,"comment":null,"name_alt":null,"lat_y":49.807074286,"long_x":86.606333855,"nation1":null,"nation2":null,"note":null,"region":"Asia","subregion":null,"featureclass":"mountain"},"geometry":{"type":"Point","coordinates":[86.60633722431956,49.80707915175273]}},{"type":"Feature","properties":{"scalerank":3,"name":"Nganglong Kangri","elevation":6720,"comment":null,"name_alt":null,"lat_y":32.81659577,"long_x":80.999888543,"nation1":null,"nation2":null,"note":null,"region":"Asia","subregion":null,"featureclass":"mountain"},"geometry":{"type":"Point","coordinates":[80.99990549673552,32.81660446393939]}},{"type":"Feature","properties":{"scalerank":3,"name":"Geladandong","elevation":6621,"comment":null,"name_alt":"Geladaindong","lat_y":33.416632391,"long_x":91.083384636,"nation1":null,"nation2":null,"note":null,"region":"Asia","subregion":null,"featureclass":"mountain"},"geometry":{"type":"Point","coordinates":[91.08342044753587,33.41662134635651]}},{"type":"Feature","properties":{"scalerank":3,"name":"Mt. Blanc","elevation":4807,"comment":null,"name_alt":null,"lat_y":45.833685614,"long_x":6.865000847,"nation1":null,"nation2":null,"note":null,"region":"Europe","subregion":null,"featureclass":"mountain"},"geometry":{"type":"Point","coordinates":[6.865042753153404,45.833678898832034]}},{"type":"Feature","properties":{"scalerank":3,"name":"Mt. Washington","elevation":1917,"comment":null,"name_alt":null,"lat_y":44.267279364,"long_x":-71.307423469,"nation1":null,"nation2":null,"note":null,"region":"North America","subregion":null,"featureclass":"mountain"},"geometry":{"type":"Point","coordinates":[-71.30744285143042,44.267293526894235]}},{"type":"Feature","properties":{"scalerank":3,"name":"Mt. Katahdin","elevation":1606,"comment":null,"name_alt":null,"lat_y":45.903387762,"long_x":-68.923634407,"nation1":null,"nation2":null,"note":null,"region":"North America","subregion":null,"featureclass":"mountain"},"geometry":{"type":"Point","coordinates":[-68.92361273588052,45.90339476144071]}},{"type":"Feature","properties":{"scalerank":3,"name":"Mt. Shasta","elevation":4322,"comment":null,"name_alt":null,"lat_y":41.409308173,"long_x":-122.194996711,"nation1":null,"nation2":null,"note":null,"region":"North America","subregion":null,"featureclass":"mountain"},"geometry":{"type":"Point","coordinates":[-122.19501400016846,41.40930668413502]}},{"type":"Feature","properties":{"scalerank":3,"name":"Grand Teton","elevation":4199,"comment":null,"name_alt":null,"lat_y":43.763373114,"long_x":-110.801808235,"nation1":null,"nation2":null,"note":null,"region":"North America","subregion":null,"featureclass":"mountain"},"geometry":{"type":"Point","coordinates":[-110.80180215186724,43.76336820713416]}},{"type":"Feature","properties":{"scalerank":3,"name":"Mt. Hood","elevation":3426,"comment":null,"name_alt":null,"lat_y":45.384466864,"long_x":-121.696583625,"nation1":null,"nation2":null,"note":null,"region":"North America","subregion":null,"featureclass":"mountain"},"geometry":{"type":"Point","coordinates":[-121.69658193493606,45.38448416646173]}},{"type":"Feature","properties":{"scalerank":4,"name":"Mt. Kenya","elevation":5199,"comment":null,"name_alt":null,"lat_y":-0.150079034,"long_x":37.299937371,"nation1":null,"nation2":null,"note":null,"region":"Africa","subregion":null,"featureclass":"mountain"},"geometry":{"type":"Point","coordinates":[37.29993476485117,-0.150072011359029]}},{"type":"Feature","properties":{"scalerank":4,"name":"Mt. Stanley","elevation":4979,"comment":null,"name_alt":null,"lat_y":0.380072333,"long_x":29.872080925,"nation1":null,"nation2":null,"note":null,"region":"Africa","subregion":null,"featureclass":"mountain"},"geometry":{"type":"Point","coordinates":[29.872085245566154,0.380107833717176]}},{"type":"Feature","properties":{"scalerank":4,"name":"Klyuchevskaya Sopka","elevation":4750,"comment":null,"name_alt":null,"lat_y":56.055975653,"long_x":160.643931511,"nation1":null,"nation2":null,"note":null,"region":"Asia","subregion":null,"featureclass":"mountain"},"geometry":{"type":"Point","coordinates":[160.64393704949978,56.05597930961122]}},{"type":"Feature","properties":{"scalerank":4,"name":"Bogda Feng","elevation":5445,"comment":null,"name_alt":"Bogda Peak","lat_y":43.795111395,"long_x":88.317393425,"nation1":null,"nation2":null,"note":null,"region":"Asia","subregion":null,"featureclass":"mountain"},"geometry":{"type":"Point","coordinates":[88.31740522653794,43.79511598697797]}},{"type":"Feature","properties":{"scalerank":4,"name":"Pik Imeni Ismail Samani","elevation":7495,"comment":null,"name_alt":null,"lat_y":38.932379462,"long_x":72.021739129,"nation1":null,"nation2":null,"note":null,"region":"Asia","subregion":null,"featureclass":"mountain"},"geometry":{"type":"Point","coordinates":[72.02174645332167,38.93237398265639]}},{"type":"Feature","properties":{"scalerank":4,"name":"Gora Manas","elevation":4482,"comment":null,"name_alt":null,"lat_y":42.289984442,"long_x":71.054209832,"nation1":null,"nation2":null,"note":null,"region":"Asia","subregion":null,"featureclass":"mountain"},"geometry":{"type":"Point","coordinates":[71.05420660805612,42.290004637970284]}},{"type":"Feature","properties":{"scalerank":4,"name":"Shah Fuladi","elevation":5048,"comment":null,"name_alt":null,"lat_y":34.642096259,"long_x":67.62769616,"nation1":null,"nation2":null,"note":null,"region":"Asia","subregion":null,"featureclass":"mountain"},"geometry":{"type":"Point","coordinates":[67.62770831325915,34.64210180495869]}},{"type":"Feature","properties":{"scalerank":4,"name":"K?h-e Jang Qal'eh","elevation":4171,"comment":null,"name_alt":null,"lat_y":33.117010809,"long_x":64.188365105,"nation1":null,"nation2":null,"note":null,"region":"Asia","subregion":null,"featureclass":"mountain"},"geometry":{"type":"Point","coordinates":[64.18836549684596,33.11699662513334]}},{"type":"Feature","properties":{"scalerank":4,"name":"Gora Munku-Sardyk","elevation":3491,"comment":null,"name_alt":null,"lat_y":51.716376044,"long_x":100.616587761,"nation1":null,"nation2":null,"note":null,"region":"Asia","subregion":null,"featureclass":"mountain"},"geometry":{"type":"Point","coordinates":[100.61655976455532,51.7163890158966]}},{"type":"Feature","properties":{"scalerank":4,"name":"Wutai Shan","elevation":3058,"comment":null,"name_alt":null,"lat_y":39.087591864,"long_x":113.570201043,"nation1":null,"nation2":null,"note":null,"region":"Asia","subregion":null,"featureclass":"mountain"},"geometry":{"type":"Point","coordinates":[113.57021942291519,39.087598814640835]}},{"type":"Feature","properties":{"scalerank":4,"name":"Kangt","elevation":7060,"comment":null,"name_alt":null,"lat_y":27.874701239,"long_x":92.531993035,"nation1":null,"nation2":null,"note":null,"region":"Asia","subregion":null,"featureclass":"mountain"},"geometry":{"type":"Point","coordinates":[92.53202397974778,27.874694967895323]}},{"type":"Feature","properties":{"scalerank":4,"name":"Mt. Chamberlin","elevation":2749,"comment":null,"name_alt":null,"lat_y":69.281073309,"long_x":-144.913624641,"nation1":null,"nation2":null,"note":null,"region":"North America","subregion":null,"featureclass":"mountain"},"geometry":{"type":"Point","coordinates":[-144.91362023830047,69.28107036816243]}},{"type":"Feature","properties":{"scalerank":4,"name":"Gunung Kinabalu","elevation":4101,"comment":null,"name_alt":null,"lat_y":6.083380438,"long_x":116.549937371,"nation1":null,"nation2":null,"note":null,"region":"Asia","subregion":"Malay Archipelago","featureclass":"mountain"},"geometry":{"type":"Point","coordinates":[116.54998687156385,6.083398563929052]}},{"type":"Feature","properties":{"scalerank":4,"name":"Puncak Jaya","elevation":4884,"comment":null,"name_alt":"Carstensz Pyramid","lat_y":-4.077691339,"long_x":137.166270379,"nation1":null,"nation2":null,"note":null,"region":"Oceania","subregion":"Melanesia","featureclass":"mountain"},"geometry":{"type":"Point","coordinates":[137.1662518971123,-4.077668215497425]}},{"type":"Feature","properties":{"scalerank":4,"name":"Chimborazo","elevation":6267,"comment":null,"name_alt":null,"lat_y":-1.469292902,"long_x":-78.81749427,"nation1":null,"nation2":null,"note":null,"region":"South America","subregion":null,"featureclass":"mountain"},"geometry":{"type":"Point","coordinates":[-78.81748923074362,-1.469260929551098]}},{"type":"Feature","properties":{"scalerank":4,"name":"Pico Bolvar","elevation":4980,"comment":null,"name_alt":null,"lat_y":8.55286286,"long_x":-71.052723762,"nation1":null,"nation2":null,"note":null,"region":"South America","subregion":null,"featureclass":"mountain"},"geometry":{"type":"Point","coordinates":[-71.05273356428654,8.552858823586945]}},{"type":"Feature","properties":{"scalerank":4,"name":"Cerro Champaqu","elevation":2770,"comment":null,"name_alt":null,"lat_y":-31.991631769,"long_x":-64.916005012,"nation1":null,"nation2":null,"note":null,"region":"South America","subregion":null,"featureclass":"mountain"},"geometry":{"type":"Point","coordinates":[-64.91600081689404,-31.991641097917707]}},{"type":"Feature","properties":{"scalerank":5,"name":"Jebel Toubkal","elevation":4165,"comment":null,"name_alt":null,"lat_y":31.062079169,"long_x":-7.916127082,"nation1":null,"nation2":null,"note":null,"region":"Africa","subregion":null,"featureclass":"mountain"},"geometry":{"type":"Point","coordinates":[-7.91613382509621,31.06207512442846]}},{"type":"Feature","properties":{"scalerank":5,"name":"Thabana Ntlenyana","elevation":3482,"comment":null,"name_alt":null,"lat_y":-29.466607355,"long_x":29.266734246,"nation1":null,"nation2":null,"note":null,"region":"Africa","subregion":null,"featureclass":"mountain"},"geometry":{"type":"Point","coordinates":[29.266696283353582,-29.466602027744443]}},{"type":"Feature","properties":{"scalerank":5,"name":"Mt. Batu","elevation":4307,"comment":null,"name_alt":null,"lat_y":6.666693427,"long_x":39.41675866,"nation1":null,"nation2":null,"note":null,"region":"Africa","subregion":null,"featureclass":"mountain"},"geometry":{"type":"Point","coordinates":[39.4167765537247,6.666693333298667]}},{"type":"Feature","properties":{"scalerank":5,"name":"Argun","elevation":3418,"comment":null,"name_alt":null,"lat_y":6.109808661,"long_x":36.747325066,"nation1":null,"nation2":null,"note":null,"region":"Africa","subregion":null,"featureclass":"mountain"},"geometry":{"type":"Point","coordinates":[36.747297202735325,6.109814655554828]}},{"type":"Feature","properties":{"scalerank":5,"name":"Kinyeti","elevation":3187,"comment":null,"name_alt":null,"lat_y":3.95508454,"long_x":32.90125573,"nation1":null,"nation2":null,"note":null,"region":"Africa","subregion":null,"featureclass":"mountain"},"geometry":{"type":"Point","coordinates":[32.90129198496396,3.955085567071237]}},{"type":"Feature","properties":{"scalerank":5,"name":"Muleta","elevation":3405,"comment":null,"name_alt":null,"lat_y":9.268866278,"long_x":41.733531121,"nation1":null,"nation2":null,"note":null,"region":"Africa","subregion":null,"featureclass":"mountain"},"geometry":{"type":"Point","coordinates":[41.73355665077494,9.268880316323958]}},{"type":"Feature","properties":{"scalerank":5,"name":"Ras Dejen","elevation":4533,"comment":null,"name_alt":null,"lat_y":13.236761786,"long_x":38.372325066,"nation1":null,"nation2":null,"note":null,"region":"Africa","subregion":null,"featureclass":"mountain"},"geometry":{"type":"Point","coordinates":[38.3723311450716,13.236746923139563]}},{"type":"Feature","properties":{"scalerank":5,"name":"Mt. Elgon","elevation":4321,"comment":null,"name_alt":null,"lat_y":1.123114325,"long_x":34.5341903,"nation1":null,"nation2":null,"note":null,"region":"Africa","subregion":null,"featureclass":"mountain"},"geometry":{"type":"Point","coordinates":[34.5341618933177,1.123151291741095]}},{"type":"Feature","properties":{"scalerank":5,"name":"Qattara Depression","elevation":-133,"comment":null,"name_alt":null,"lat_y":30.043585516,"long_x":27.496226433,"nation1":null,"nation2":null,"note":null,"region":"Africa","subregion":null,"featureclass":"depression"},"geometry":{"type":"Point","coordinates":[27.496252662343352,30.04360150004962]}},{"type":"Feature","properties":{"scalerank":5,"name":"Er Richat Depression","elevation":485,"comment":null,"name_alt":null,"lat_y":21.205511786,"long_x":-11.373036262,"nation1":null,"nation2":null,"note":null,"region":"Africa","subregion":null,"featureclass":"depression"},"geometry":{"type":"Point","coordinates":[-11.373046977682492,21.205520447091686]}},{"type":"Feature","properties":{"scalerank":5,"name":"Talo","elevation":4413,"comment":null,"name_alt":null,"lat_y":10.656683661,"long_x":37.882212761,"nation1":null,"nation2":null,"note":null,"region":"Africa","subregion":null,"featureclass":"mountain"},"geometry":{"type":"Point","coordinates":[37.882219744785544,10.656694524534643]}},{"type":"Feature","properties":{"scalerank":5,"name":"Lesatima","elevation":4001,"comment":null,"name_alt":null,"lat_y":-0.324761652,"long_x":36.623667839,"nation1":null,"nation2":null,"note":null,"region":"Africa","subregion":null,"featureclass":"mountain"},"geometry":{"type":"Point","coordinates":[36.623618192707625,-0.324805975232238]}},{"type":"Feature","properties":{"scalerank":5,"name":"Otgon Tenger","elevation":4000,"comment":null,"name_alt":null,"lat_y":47.599982001,"long_x":97.550181511,"nation1":null,"nation2":null,"note":null,"region":"Asia","subregion":null,"featureclass":"mountain"},"geometry":{"type":"Point","coordinates":[97.55019277394084,47.59996218736911]}},{"type":"Feature","properties":{"scalerank":5,"name":"Gora Korolenko","elevation":1647,"comment":null,"name_alt":null,"lat_y":58.288275458,"long_x":115.007090691,"nation1":null,"nation2":null,"note":null,"region":"Asia","subregion":null,"featureclass":"mountain"},"geometry":{"type":"Point","coordinates":[115.0071093976783,58.288260226720915]}},{"type":"Feature","properties":{"scalerank":5,"name":"Magen Gangri","elevation":6282,"comment":null,"name_alt":"Mt. Amnyemaqen","lat_y":34.800116278,"long_x":99.466563347,"nation1":null,"nation2":null,"note":null,"region":"Asia","subregion":null,"featureclass":"mountain"},"geometry":{"type":"Point","coordinates":[99.4666115557088,34.80011365578439]}},{"type":"Feature","properties":{"scalerank":5,"name":"Taibai Shan","elevation":3767,"comment":null,"name_alt":null,"lat_y":33.950079657,"long_x":107.750132683,"nation1":null,"nation2":null,"note":null,"region":"Asia","subregion":null,"featureclass":"mountain"},"geometry":{"type":"Point","coordinates":[107.75011625083519,33.95007290920289]}},{"type":"Feature","properties":{"scalerank":5,"name":"Nanda Devi","elevation":7817,"comment":null,"name_alt":null,"lat_y":30.542486884,"long_x":79.970957879,"nation1":null,"nation2":null,"note":null,"region":"Asia","subregion":null,"featureclass":"mountain"},"geometry":{"type":"Point","coordinates":[79.97097045380761,30.54247787263352]}},{"type":"Feature","properties":{"scalerank":5,"name":"Daba Shan","elevation":2708,"comment":null,"name_alt":null,"lat_y":32.249884345,"long_x":109.000010613,"nation1":null,"nation2":null,"note":null,"region":"Asia","subregion":null,"featureclass":"mountain"},"geometry":{"type":"Point","coordinates":[108.99999322219267,32.24987024130764]}},{"type":"Feature","properties":{"scalerank":5,"name":"Mazong Shan","elevation":2584,"comment":null,"name_alt":null,"lat_y":41.523810126,"long_x":97.119395379,"nation1":null,"nation2":null,"note":null,"region":"Asia","subregion":null,"featureclass":"mountain"},"geometry":{"type":"Point","coordinates":[97.11937620929186,41.52381680609076]}},{"type":"Feature","properties":{"scalerank":5,"name":"Gora Burun-Shibertuy","elevation":2519,"comment":null,"name_alt":null,"lat_y":49.700079657,"long_x":109.98316491,"nation1":null,"nation2":null,"note":null,"region":"Asia","subregion":null,"featureclass":"mountain"},"geometry":{"type":"Point","coordinates":[109.98312421633827,49.700081863195145]}},{"type":"Feature","properties":{"scalerank":5,"name":"Skalistyy Golets","elevation":2467,"comment":null,"name_alt":null,"lat_y":56.401495673,"long_x":119.098033074,"nation1":null,"nation2":null,"note":null,"region":"Asia","subregion":null,"featureclass":"mountain"},"geometry":{"type":"Point","coordinates":[119.09804914086047,56.4014888627715]}},{"type":"Feature","properties":{"scalerank":5,"name":"Inyaptuk Golets","elevation":2641,"comment":null,"name_alt":null,"lat_y":56.364081122,"long_x":111.631480339,"nation1":null,"nation2":null,"note":null,"region":"Asia","subregion":null,"featureclass":"mountain"},"geometry":{"type":"Point","coordinates":[111.6315044904172,56.36408626209037]}},{"type":"Feature","properties":{"scalerank":5,"name":"Grandiozny Pk.","elevation":2891,"comment":null,"name_alt":null,"lat_y":53.925665595,"long_x":96.038584832,"nation1":null,"nation2":null,"note":null,"region":"Asia","subregion":null,"featureclass":"mountain"},"geometry":{"type":"Point","coordinates":[96.03857838097022,53.925687125460335]}},{"type":"Feature","properties":{"scalerank":5,"name":"Wheeler Pk.","elevation":3982,"comment":null,"name_alt":null,"lat_y":38.986273505,"long_x":-114.313404914,"nation1":null,"nation2":null,"note":null,"region":"North America","subregion":null,"featureclass":"mountain"},"geometry":{"type":"Point","coordinates":[-114.31340550026589,38.98625634692057]}},{"type":"Feature","properties":{"scalerank":5,"name":"Borah Pk.","elevation":3859,"comment":null,"name_alt":null,"lat_y":44.140082098,"long_x":-113.78221595,"nation1":null,"nation2":null,"note":null,"region":"North America","subregion":null,"featureclass":"mountain"},"geometry":{"type":"Point","coordinates":[-113.78221586575444,44.14010044963194]}},{"type":"Feature","properties":{"scalerank":5,"name":"Sacajawea Pk.","elevation":2999,"comment":null,"name_alt":null,"lat_y":45.253668524,"long_x":-117.296681282,"nation1":null,"nation2":null,"note":null,"region":"North America","subregion":null,"featureclass":"mountain"},"geometry":{"type":"Point","coordinates":[-117.29668701614916,45.25365584723258]}},{"type":"Feature","properties":{"scalerank":5,"name":"Trapper Pk.","elevation":3096,"comment":null,"name_alt":null,"lat_y":45.906378485,"long_x":-114.313832161,"nation1":null,"nation2":null,"note":null,"region":"North America","subregion":null,"featureclass":"mountain"},"geometry":{"type":"Point","coordinates":[-114.31380941603999,45.90638373816901]}},{"type":"Feature","properties":{"scalerank":5,"name":"Kings Pk.","elevation":4123,"comment":null,"name_alt":null,"lat_y":40.782110907,"long_x":-110.372547981,"nation1":null,"nation2":null,"note":null,"region":"North America","subregion":null,"featureclass":"mountain"},"geometry":{"type":"Point","coordinates":[-110.37256085873719,40.78210627012135]}},{"type":"Feature","properties":{"scalerank":5,"name":"Mt. Baker","elevation":3286,"comment":null,"name_alt":null,"lat_y":48.795904852,"long_x":-121.823231575,"nation1":null,"nation2":null,"note":null,"region":"North America","subregion":null,"featureclass":"mountain"},"geometry":{"type":"Point","coordinates":[-121.82324992169204,48.79591640288499]}},{"type":"Feature","properties":{"scalerank":5,"name":"Mt. Elbert","elevation":4402,"comment":null,"name_alt":null,"lat_y":39.12506745,"long_x":-106.44640052,"nation1":null,"nation2":null,"note":null,"region":"North America","subregion":null,"featureclass":"mountain"},"geometry":{"type":"Point","coordinates":[-106.44641875138552,39.12508219847679]}},{"type":"Feature","properties":{"scalerank":5,"name":"Uncompahgre Pk.","elevation":4361,"comment":null,"name_alt":null,"lat_y":38.073004462,"long_x":-107.477040168,"nation1":null,"nation2":null,"note":null,"region":"North America","subregion":null,"featureclass":"mountain"},"geometry":{"type":"Point","coordinates":[-107.47705024056461,38.0730027816933]}},{"type":"Feature","properties":{"scalerank":5,"name":"Mt. Mitchell","elevation":2037,"comment":null,"name_alt":null,"lat_y":35.764715887,"long_x":-82.268055793,"nation1":null,"nation2":null,"note":null,"region":"North America","subregion":null,"featureclass":"mountain"},"geometry":{"type":"Point","coordinates":[-82.26806090567662,35.76470491589905]}},{"type":"Feature","properties":{"scalerank":5,"name":"Clingmans Dome","elevation":2025,"comment":null,"name_alt":null,"lat_y":35.586920477,"long_x":-83.497425911,"nation1":null,"nation2":null,"note":null,"region":"North America","subregion":null,"featureclass":"mountain"},"geometry":{"type":"Point","coordinates":[-83.49741895571012,35.58694158372014]}},{"type":"Feature","properties":{"scalerank":5,"name":"Spruce Knob","elevation":1482,"comment":null,"name_alt":null,"lat_y":38.714972235,"long_x":-79.535206672,"nation1":null,"nation2":null,"note":null,"region":"North America","subregion":null,"featureclass":"mountain"},"geometry":{"type":"Point","coordinates":[-79.53520716973182,38.71498651303882]}},{"type":"Feature","properties":{"scalerank":5,"name":"Mt. Rogers","elevation":1746,"comment":null,"name_alt":null,"lat_y":36.677008368,"long_x":-81.562001106,"nation1":null,"nation2":null,"note":null,"region":"North America","subregion":null,"featureclass":"mountain"},"geometry":{"type":"Point","coordinates":[-81.56201613255975,36.6770294748459]}}]}